{"type":"FeatureCollection","features":[{"type":"Feature","properties":{"City":"Phnom Penh, Cambodia","Month_1":7,"Month_2":10,"Month_3":40,"Month_4":75,"Month_5":135,"Month_6":155,"Month_7":170,"Month_8":160,"Month_9":225,"Month_10":255,"Month_11":125,"Month_12":45},"geometry":{"type":"Point","coordinates":[104.9224426,11.568271]}},{"type":"Feature","properties":{"City":"Kampot, Cambodia","Month_1":10,"Month_2":20,"Month_3":80,"Month_4":100,"Month_5":190,"Month_6":210,"Month_7":320,"Month_8":330,"Month_9":250,"Month_10":230,"Month_11":140,"Month_12":40},"geometry":{"type":"Point","coordinates":[104.132637,10.6314754]}},{"type":"Feature","properties":{"City":"Koh Kong, Cambodia","Month_1":40,"Month_2":65,"Month_3":105,"Month_4":135,"Month_5":375,"Month_6":780,"Month_7":745,"Month_8":985,"Month_9":640,"Month_10":345,"Month_11":120,"Month_12":35},"geometry":{"type":"Point","coordinates":[103.0258043,11.6813417]}},{"type":"Feature","properties":{"City":"Vientiane, Laos","Month_1":8,"Month_2":13,"Month_3":25,"Month_4":85,"Month_5":245,"Month_6":280,"Month_7":270,"Month_8":335,"Month_9":295,"Month_10":80,"Month_11":10,"Month_12":3},"geometry":{"type":"Point","coordinates":[102.6133707,17.9640988]}},{"type":"Feature","properties":{"City":"Luang Prabang, Laos","Month_1":15,"Month_2":15,"Month_3":35,"Month_4":95,"Month_5":150,"Month_6":175,"Month_7":225,"Month_8":225,"Month_9":165,"Month_10":105,"Month_11":30,"Month_12":15},"geometry":{"type":"Point","coordinates":[102.135898,19.8887438]}},{"type":"Feature","properties":{"City":"Pakse, Laos","Month_1":2,"Month_2":10,"Month_3":25,"Month_4":65,"Month_5":230,"Month_6":350,"Month_7":415,"Month_8":505,"Month_9":310,"Month_10":130,"Month_11":25,"Month_12":2},"geometry":{"type":"Point","coordinates":[105.8043971,15.1201461]}},{"type":"Feature","properties":{"City":"Rangoon (Yangon), Burma","Month_1":5,"Month_2":2,"Month_3":7,"Month_4":15,"Month_5":300,"Month_6":545,"Month_7":560,"Month_8":600,"Month_9":370,"Month_10":205,"Month_11":60,"Month_12":7},"geometry":{"type":"Point","coordinates":[96.1609916,16.7967129]}},{"type":"Feature","properties":{"City":"Myitkyina, Burma","Month_1":10,"Month_2":20,"Month_3":20,"Month_4":40,"Month_5":160,"Month_6":480,"Month_7":470,"Month_8":430,"Month_9":250,"Month_10":180,"Month_11":30,"Month_12":10},"geometry":{"type":"Point","coordinates":[97.3999925,25.3833313]}},{"type":"Feature","properties":{"City":"Mandalay, Burma","Month_1":4,"Month_2":3,"Month_3":1,"Month_4":40,"Month_5":140,"Month_6":115,"Month_7":85,"Month_8":135,"Month_9":150,"Month_10":125,"Month_11":40,"Month_12":6},"geometry":{"type":"Point","coordinates":[96.0948743,21.9596834]}},{"type":"Feature","properties":{"City":"Sittwe, Burma","Month_1":10,"Month_2":10,"Month_3":8,"Month_4":25,"Month_5":330,"Month_6":1130,"Month_7":1335,"Month_8":940,"Month_9":565,"Month_10":305,"Month_11":85,"Month_12":12},"geometry":{"type":"Point","coordinates":[92.9,20.15]}},{"type":"Feature","properties":{"City":"Myeik, Burma","Month_1":20,"Month_2":50,"Month_3":70,"Month_4":120,"Month_5":420,"Month_6":760,"Month_7":830,"Month_8":760,"Month_9":630,"Month_10":300,"Month_11":90,"Month_12":20},"geometry":{"type":"Point","coordinates":[98.5955711,12.4319552]}},{"type":"Feature","properties":{"City":"Kuala Lumpur, Malaysia","Month_1":170,"Month_2":165,"Month_3":240,"Month_4":260,"Month_5":205,"Month_6":125,"Month_7":125,"Month_8":155,"Month_9":195,"Month_10":255,"Month_11":290,"Month_12":245},"geometry":{"type":"Point","coordinates":[101.6942371,3.1516964]}},{"type":"Feature","properties":{"City":"Kota Bharu, Malaysia","Month_1":90,"Month_2":60,"Month_3":135,"Month_4":95,"Month_5":110,"Month_6":110,"Month_7":155,"Month_8":155,"Month_9":175,"Month_10":260,"Month_11":645,"Month_12":565},"geometry":{"type":"Point","coordinates":[102.2399785,6.12584]}},{"type":"Feature","properties":{"City":"Langkawi, Malaysia","Month_1":25,"Month_2":35,"Month_3":105,"Month_4":195,"Month_5":205,"Month_6":250,"Month_7":265,"Month_8":320,"Month_9":340,"Month_10":375,"Month_11":195,"Month_12":60},"geometry":{"type":"Point","coordinates":[99.7928634,6.3700386]}},{"type":"Feature","properties":{"City":"Kuching, Malaysia","Month_1":700,"Month_2":455,"Month_3":350,"Month_4":275,"Month_5":245,"Month_6":225,"Month_7":205,"Month_8":245,"Month_9":260,"Month_10":340,"Month_11":360,"Month_12":500},"geometry":{"type":"Point","coordinates":[110.3439862,1.5574127]}},{"type":"Feature","properties":{"City":"Bintulu, Malaysia","Month_1":445,"Month_2":240,"Month_3":270,"Month_4":245,"Month_5":240,"Month_6":255,"Month_7":255,"Month_8":290,"Month_9":295,"Month_10":335,"Month_11":425,"Month_12":450},"geometry":{"type":"Point","coordinates":[113.0472803,3.1874261]}},{"type":"Feature","properties":{"City":"Kota Kinabalu, Malaysia","Month_1":105,"Month_2":75,"Month_3":50,"Month_4":115,"Month_5":215,"Month_6":280,"Month_7":265,"Month_8":270,"Month_9":285,"Month_10":345,"Month_11":300,"Month_12":240},"geometry":{"type":"Point","coordinates":[116.0728988,5.9780066]}},{"type":"Feature","properties":{"City":"Sandakan, Malaysia","Month_1":400,"Month_2":305,"Month_3":155,"Month_4":115,"Month_5":125,"Month_6":195,"Month_7":200,"Month_8":225,"Month_9":225,"Month_10":285,"Month_11":335,"Month_12":460},"geometry":{"type":"Point","coordinates":[118.1158598,5.8391274]}},{"type":"Feature","properties":{"City":"Tawau, Malaysia","Month_1":140,"Month_2":100,"Month_3":100,"Month_4":90,"Month_5":125,"Month_6":160,"Month_7":205,"Month_8":200,"Month_9":180,"Month_10":170,"Month_11":150,"Month_12":135},"geometry":{"type":"Point","coordinates":[117.885331,4.2435206]}},{"type":"Feature","properties":{"City":"Singapore","Month_1":220,"Month_2":105,"Month_3":150,"Month_4":165,"Month_5":165,"Month_6":135,"Month_7":145,"Month_8":145,"Month_9":125,"Month_10":170,"Month_11":250,"Month_12":330},"geometry":{"type":"Point","coordinates":[103.8194992,1.357107]}},{"type":"Feature","properties":{"City":"Lampang, Thailand","Month_1":3,"Month_2":9,"Month_3":25,"Month_4":65,"Month_5":160,"Month_6":120,"Month_7":135,"Month_8":185,"Month_9":210,"Month_10":100,"Month_11":30,"Month_12":7},"geometry":{"type":"Point","coordinates":[99.7332501,18.6799728]}},{"type":"Feature","properties":{"City":"Bangkok, Thailand","Month_1":13,"Month_2":20,"Month_3":40,"Month_4":90,"Month_5":250,"Month_6":155,"Month_7":175,"Month_8":220,"Month_9":335,"Month_10":290,"Month_11":50,"Month_12":6},"geometry":{"type":"Point","coordinates":[100.6224463,13.8245796]}},{"type":"Feature","properties":{"City":"Pattaya, Thailand","Month_1":15,"Month_2":14,"Month_3":55,"Month_4":65,"Month_5":150,"Month_6":120,"Month_7":95,"Month_8":100,"Month_9":205,"Month_10":215,"Month_11":70,"Month_12":8},"geometry":{"type":"Point","coordinates":[100.8865002,12.9366924]}},{"type":"Feature","properties":{"City":"Ko Samui, Thailand","Month_1":125,"Month_2":65,"Month_3":115,"Month_4":85,"Month_5":130,"Month_6":135,"Month_7":115,"Month_8":100,"Month_9":120,"Month_10":295,"Month_11":445,"Month_12":265},"geometry":{"type":"Point","coordinates":[99.99561927,9.50139445]}},{"type":"Feature","properties":{"City":"Phuket, Thailand","Month_1":35,"Month_2":40,"Month_3":75,"Month_4":125,"Month_5":295,"Month_6":265,"Month_7":215,"Month_8":245,"Month_9":325,"Month_10":315,"Month_11":195,"Month_12":80},"geometry":{"type":"Point","coordinates":[98.3529292,7.9366015]}},{"type":"Feature","properties":{"City":"Hanoi, Vietnam","Month_1":20,"Month_2":20,"Month_3":35,"Month_4":105,"Month_5":165,"Month_6":265,"Month_7":255,"Month_8":275,"Month_9":245,"Month_10":155,"Month_11":60,"Month_12":20},"geometry":{"type":"Point","coordinates":[105.854041,21.0283334]}},{"type":"Feature","properties":{"City":"Saigon, Vietnam","Month_1":15,"Month_2":5,"Month_3":10,"Month_4":50,"Month_5":220,"Month_6":310,"Month_7":295,"Month_8":270,"Month_9":325,"Month_10":265,"Month_11":115,"Month_12":50},"geometry":{"type":"Point","coordinates":[106.7011391,10.7763897]}},{"type":"Feature","properties":{"City":"Da Nang, Vietnam","Month_1":85,"Month_2":25,"Month_3":20,"Month_4":35,"Month_5":85,"Month_6":90,"Month_7":85,"Month_8":115,"Month_9":310,"Month_10":650,"Month_11":430,"Month_12":215},"geometry":{"type":"Point","coordinates":[108.212,16.068]}},{"type":"Feature","properties":{"City":"Nha Trang, Vietnam","Month_1":40,"Month_2":15,"Month_3":30,"Month_4":35,"Month_5":70,"Month_6":60,"Month_7":35,"Month_8":50,"Month_9":160,"Month_10":300,"Month_11":330,"Month_12":155},"geometry":{"type":"Point","coordinates":[109.1898675,12.2431693]}},{"type":"Feature","properties":{"City":"Pleiku, Vietnam","Month_1":3,"Month_2":6,"Month_3":20,"Month_4":95,"Month_5":245,"Month_6":345,"Month_7":390,"Month_8":475,"Month_9":360,"Month_10":190,"Month_11":65,"Month_12":11},"geometry":{"type":"Point","coordinates":[108.0143597,13.9715982]}},{"type":"Feature","properties":{"City":"Saidpur, Bangladesh","Month_1":13,"Month_2":6,"Month_3":25,"Month_4":95,"Month_5":220,"Month_6":435,"Month_7":350,"Month_8":350,"Month_9":455,"Month_10":140,"Month_11":12,"Month_12":7},"geometry":{"type":"Point","coordinates":[88.90028787,25.8038041]}},{"type":"Feature","properties":{"City":"Dhaka, Bangladesh","Month_1":8,"Month_2":25,"Month_3":60,"Month_4":140,"Month_5":280,"Month_6":345,"Month_7":375,"Month_8":295,"Month_9":340,"Month_10":175,"Month_11":30,"Month_12":12},"geometry":{"type":"Point","coordinates":[90.389015,23.7644025]}},{"type":"Feature","properties":{"City":"Chittagong, Bangladesh","Month_1":7,"Month_2":25,"Month_3":55,"Month_4":135,"Month_5":315,"Month_6":590,"Month_7":735,"Month_8":515,"Month_9":240,"Month_10":200,"Month_11":60,"Month_12":14},"geometry":{"type":"Point","coordinates":[91.8412863,22.3307998]}},{"type":"Feature","properties":{"City":"Samtse, Bhutan","Month_1":20,"Month_2":39,"Month_3":148,"Month_4":333,"Month_5":636,"Month_6":1051,"Month_7":1213,"Month_8":1065,"Month_9":670,"Month_10":209,"Month_11":21,"Month_12":14},"geometry":{"type":"Point","coordinates":[89.0147344,27.0352532]}},{"type":"Feature","properties":{"City":"Thimphu, Bhutan","Month_1":6,"Month_2":9,"Month_3":20,"Month_4":30,"Month_5":50,"Month_6":98,"Month_7":153,"Month_8":121,"Month_9":74,"Month_10":43,"Month_11":1,"Month_12":4},"geometry":{"type":"Point","coordinates":[89.6336729,27.4713546]}},{"type":"Feature","properties":{"City":"Srinagar, India","Month_1":75,"Month_2":70,"Month_3":105,"Month_4":80,"Month_5":65,"Month_6":35,"Month_7":60,"Month_8":65,"Month_9":30,"Month_10":30,"Month_11":20,"Month_12":35},"geometry":{"type":"Point","coordinates":[74.8204443,34.0747444]}},{"type":"Feature","properties":{"City":"Gangtok, India","Month_1":30,"Month_2":80,"Month_3":120,"Month_4":270,"Month_5":525,"Month_6":610,"Month_7":630,"Month_8":565,"Month_9":465,"Month_10":180,"Month_11":40,"Month_12":20},"geometry":{"type":"Point","coordinates":[88.6122673,27.329046]}},{"type":"Feature","properties":{"City":"New Delhi, India","Month_1":20,"Month_2":20,"Month_3":15,"Month_4":13,"Month_5":30,"Month_6":80,"Month_7":185,"Month_8":235,"Month_9":130,"Month_10":14,"Month_11":5,"Month_12":9},"geometry":{"type":"Point","coordinates":[77.2090057,28.6138954]}},{"type":"Feature","properties":{"City":"Jodhpur, India","Month_1":4,"Month_2":4,"Month_3":1,"Month_4":5,"Month_5":15,"Month_6":40,"Month_7":120,"Month_8":110,"Month_9":50,"Month_10":7,"Month_11":2,"Month_12":1},"geometry":{"type":"Point","coordinates":[73.0351433,26.2967719]},"id":38},{"type":"Feature","properties":{"City":"Kolkata, India","Month_1":12,"Month_2":25,"Month_3":30,"Month_4":55,"Month_5":155,"Month_6":295,"Month_7":345,"Month_8":345,"Month_9":305,"Month_10":160,"Month_11":20,"Month_12":9},"geometry":{"type":"Point","coordinates":[88.3638953,22.5726459]}},{"type":"Feature","properties":{"City":"Hyderabad, India","Month_1":9,"Month_2":9,"Month_3":20,"Month_4":20,"Month_5":30,"Month_6":110,"Month_7":180,"Month_8":205,"Month_9":135,"Month_10":105,"Month_11":25,"Month_12":5},"geometry":{"type":"Point","coordinates":[78.4740613,17.360589]}},{"type":"Feature","properties":{"City":"Bangalore, India","Month_1":2,"Month_2":5,"Month_3":20,"Month_4":40,"Month_5":105,"Month_6":105,"Month_7":115,"Month_8":145,"Month_9":215,"Month_10":170,"Month_11":50,"Month_12":15},"geometry":{"type":"Point","coordinates":[77.590082,12.9767936]}},{"type":"Feature","properties":{"City":"Chennai, India","Month_1":25,"Month_2":5,"Month_3":15,"Month_4":25,"Month_5":50,"Month_6":55,"Month_7":85,"Month_8":125,"Month_9":120,"Month_10":265,"Month_11":310,"Month_12":155},"geometry":{"type":"Point","coordinates":[80.270186,13.0836939]}},{"type":"Feature","properties":{"City":"Mumbai (Bombay), India","Month_1":1,"Month_2":1,"Month_3":1,"Month_4":1,"Month_5":20,"Month_6":530,"Month_7":710,"Month_8":495,"Month_9":330,"Month_10":80,"Month_11":15,"Month_12":3},"geometry":{"type":"Point","coordinates":[72.82810492,18.9733536]}},{"type":"Feature","properties":{"City":"Minicoy, India","Month_1":45,"Month_2":20,"Month_3":25,"Month_4":60,"Month_5":180,"Month_6":295,"Month_7":225,"Month_8":200,"Month_9":160,"Month_10":185,"Month_11":140,"Month_12":85},"geometry":{"type":"Point","coordinates":[73.06483943,8.295235]}},{"type":"Feature","properties":{"City":"Port Blair, India","Month_1":35,"Month_2":20,"Month_3":10,"Month_4":70,"Month_5":345,"Month_6":455,"Month_7":400,"Month_8":425,"Month_9":405,"Month_10":295,"Month_11":255,"Month_12":155},"geometry":{"type":"Point","coordinates":[92.7390448,11.6645348]}},{"type":"Feature","properties":{"City":"Srinagar, India","Month_1":75,"Month_2":70,"Month_3":105,"Month_4":80,"Month_5":65,"Month_6":35,"Month_7":60,"Month_8":65,"Month_9":30,"Month_10":30,"Month_11":20,"Month_12":35},"geometry":{"type":"Point","coordinates":[74.8204443,34.0747444]}},{"type":"Feature","properties":{"City":"Jaffna, Sri Lanka","Month_1":44,"Month_2":26,"Month_3":42,"Month_4":65,"Month_5":66,"Month_6":18,"Month_7":23,"Month_8":57,"Month_9":81,"Month_10":235,"Month_11":437,"Month_12":274},"geometry":{"type":"Point","coordinates":[80.0093029,9.665093]}},{"type":"Feature","properties":{"City":"Mannar, Sri Lanka","Month_1":54,"Month_2":28,"Month_3":35,"Month_4":89,"Month_5":61,"Month_6":6,"Month_7":8,"Month_8":13,"Month_9":53,"Month_10":166,"Month_11":257,"Month_12":177},"geometry":{"type":"Point","coordinates":[79.9137786,8.9772444]}},{"type":"Feature","properties":{"City":"Puttalam, Sri Lanka","Month_1":50,"Month_2":42,"Month_3":57,"Month_4":154,"Month_5":102,"Month_6":32,"Month_7":24,"Month_8":23,"Month_9":69,"Month_10":231,"Month_11":255,"Month_12":144},"geometry":{"type":"Point","coordinates":[79.82933709,7.98184025]}},{"type":"Feature","properties":{"City":"Colombo, Sri Lanka","Month_1":85,"Month_2":70,"Month_3":101,"Month_4":267,"Month_5":316,"Month_6":203,"Month_7":134,"Month_8":120,"Month_9":276,"Month_10":395,"Month_11":364,"Month_12":174},"geometry":{"type":"Point","coordinates":[79.8542005,6.9388614]}},{"type":"Feature","properties":{"City":"Galle, Sri Lanka","Month_1":87,"Month_2":71,"Month_3":90,"Month_4":202,"Month_5":316,"Month_6":184,"Month_7":173,"Month_8":162,"Month_9":261,"Month_10":344,"Month_11":283,"Month_12":176},"geometry":{"type":"Point","coordinates":[80.214955,6.0328139]}},{"type":"Feature","properties":{"City":"Trincomalee, Sri Lanka","Month_1":152,"Month_2":96,"Month_3":55,"Month_4":48,"Month_5":72,"Month_6":26,"Month_7":51,"Month_8":67,"Month_9":113,"Month_10":216,"Month_11":376,"Month_12":339},"geometry":{"type":"Point","coordinates":[81.2344952,8.576425]}},{"type":"Feature","properties":{"City":"Hambantota, Sri Lanka","Month_1":68,"Month_2":47,"Month_3":47,"Month_4":92,"Month_5":73,"Month_6":41,"Month_7":31,"Month_8":59,"Month_9":100,"Month_10":128,"Month_11":222,"Month_12":132},"geometry":{"type":"Point","coordinates":[81.1321195,6.176392]}},{"type":"Feature","properties":{"City":"Kandy, Sri Lanka","Month_1":103,"Month_2":78,"Month_3":98,"Month_4":189,"Month_5":141,"Month_6":124,"Month_7":108,"Month_8":95,"Month_9":124,"Month_10":303,"Month_11":269,"Month_12":204},"geometry":{"type":"Point","coordinates":[80.6350358,7.2931208]}},{"type":"Feature","properties":{"City":"Nuwara Eliya, Sri Lanka","Month_1":116,"Month_2":73,"Month_3":72,"Month_4":134,"Month_5":172,"Month_6":168,"Month_7":155,"Month_8":132,"Month_9":161,"Month_10":247,"Month_11":226,"Month_12":183},"geometry":{"type":"Point","coordinates":[80.75716115,7.012402]}},{"type":"Feature","properties":{"City":"Nepalganj, Nepal","Month_1":20,"Month_2":25,"Month_3":9,"Month_4":8,"Month_5":30,"Month_6":155,"Month_7":310,"Month_8":325,"Month_9":215,"Month_10":40,"Month_11":7,"Month_12":8},"geometry":{"type":"Point","coordinates":[81.625847,28.058903]}},{"type":"Feature","properties":{"City":"Pokhara, Nepal","Month_1":22,"Month_2":35,"Month_3":64,"Month_4":142,"Month_5":353,"Month_6":648,"Month_7":941,"Month_8":839,"Month_9":635,"Month_10":159,"Month_11":17,"Month_12":12},"geometry":{"type":"Point","coordinates":[83.991402,28.209538]}},{"type":"Feature","properties":{"City":"Kathmandu, Nepal","Month_1":14,"Month_2":20,"Month_3":35,"Month_4":60,"Month_5":125,"Month_6":235,"Month_7":365,"Month_8":330,"Month_9":200,"Month_10":50,"Month_11":8,"Month_12":13},"geometry":{"type":"Point","coordinates":[85.3205817,27.708317]}},{"type":"Feature","properties":{"City":"Jumla, Nepal","Month_1":37,"Month_2":46,"Month_3":49,"Month_4":42,"Month_5":51,"Month_6":79,"Month_7":178,"Month_8":182,"Month_9":95,"Month_10":26,"Month_11":9,"Month_12":9},"geometry":{"type":"Point","coordinates":[82.19799916,29.2388968]}},{"type":"Feature","properties":{"City":"Skardu, Pakistan","Month_1":30,"Month_2":25,"Month_3":35,"Month_4":30,"Month_5":25,"Month_6":10,"Month_7":10,"Month_8":10,"Month_9":10,"Month_10":5,"Month_11":5,"Month_12":15},"geometry":{"type":"Point","coordinates":[75.6074375,35.2875284]}},{"type":"Feature","properties":{"City":"Quetta, Pakistan","Month_1":50,"Month_2":45,"Month_3":50,"Month_4":30,"Month_5":9,"Month_6":3,"Month_7":17,"Month_8":16,"Month_9":1,"Month_10":4,"Month_11":6,"Month_12":30},"geometry":{"type":"Point","coordinates":[67.0172447,30.1957677]}},{"type":"Feature","properties":{"City":"Peshawar, Pakistan","Month_1":30,"Month_2":45,"Month_3":75,"Month_4":50,"Month_5":25,"Month_6":8,"Month_7":45,"Month_8":70,"Month_9":22,"Month_10":11,"Month_11":13,"Month_12":25},"geometry":{"type":"Point","coordinates":[71.5787458,34.0123846]}},{"type":"Feature","properties":{"City":"Lahore, Pakistan","Month_1":25,"Month_2":30,"Month_3":40,"Month_4":20,"Month_5":20,"Month_6":35,"Month_7":200,"Month_8":165,"Month_9":60,"Month_10":12,"Month_11":4,"Month_12":14},"geometry":{"type":"Point","coordinates":[74.3141829,31.5656822]}},{"type":"Feature","properties":{"City":"Islamabad, Pakistan","Month_1":65,"Month_2":95,"Month_3":110,"Month_4":80,"Month_5":55,"Month_6":80,"Month_7":275,"Month_8":290,"Month_9":100,"Month_10":35,"Month_11":25,"Month_12":45},"geometry":{"type":"Point","coordinates":[73.0651511,33.6938118]}},{"type":"Feature","properties":{"City":"Jacobabad, Pakistan","Month_1":3,"Month_2":7,"Month_3":10,"Month_4":2,"Month_5":2,"Month_6":5,"Month_7":35,"Month_8":25,"Month_9":11,"Month_10":2,"Month_11":1,"Month_12":4},"geometry":{"type":"Point","coordinates":[68.4364361,28.2813094]}},{"type":"Feature","properties":{"City":"Hyderabad, Pakistan","Month_1":1,"Month_2":4,"Month_3":5,"Month_4":6,"Month_5":4,"Month_6":14,"Month_7":55,"Month_8":60,"Month_9":20,"Month_10":2,"Month_11":2,"Month_12":2},"geometry":{"type":"Point","coordinates":[68.36134563,25.4075358]}},{"type":"Feature","properties":{"City":"Karachi, Pakistan","Month_1":5,"Month_2":8,"Month_3":10,"Month_4":5,"Month_5":1,"Month_6":7,"Month_7":80,"Month_8":55,"Month_9":20,"Month_10":1,"Month_11":2,"Month_12":6},"geometry":{"type":"Point","coordinates":[67.0207055,24.8546842]}}]}