{"type":"FeatureCollection","features":[{"type":"Feature","properties":{"City":"Phnom Penh, Cambodia","Month_1":7,"Month_2":10,"Month_3":40,"Month_4":75,"Month_5":135,"Month_6":155,"Month_7":170,"Month_8":160,"Month_9":225,"Month_10":255,"Month_11":125,"Month_12":45},"geometry":{"type":"Point","coordinates":[104.9224426,11.568271]}},{"type":"Feature","properties":{"City":"Vientiane, Laos","Month_1":8,"Month_2":13,"Month_3":25,"Month_4":85,"Month_5":245,"Month_6":280,"Month_7":270,"Month_8":335,"Month_9":295,"Month_10":80,"Month_11":10,"Month_12":3},"geometry":{"type":"Point","coordinates":[102.6133707,17.9640988]}},{"type":"Feature","properties":{"City":"Rangoon (Yangon), Burma","Month_1":5,"Month_2":2,"Month_3":7,"Month_4":15,"Month_5":300,"Month_6":545,"Month_7":560,"Month_8":600,"Month_9":370,"Month_10":205,"Month_11":60,"Month_12":7},"geometry":{"type":"Point","coordinates":[96.1609916,16.7967129]}},{"type":"Feature","properties":{"City":"Kuala Lumpur, Malaysia","Month_1":170,"Month_2":165,"Month_3":240,"Month_4":260,"Month_5":205,"Month_6":125,"Month_7":125,"Month_8":155,"Month_9":195,"Month_10":255,"Month_11":290,"Month_12":245},"geometry":{"type":"Point","coordinates":[101.6942371,3.1516964]}},{"type":"Feature","properties":{"City":"Singapore","Month_1":220,"Month_2":105,"Month_3":150,"Month_4":165,"Month_5":165,"Month_6":135,"Month_7":145,"Month_8":145,"Month_9":125,"Month_10":170,"Month_11":250,"Month_12":330},"geometry":{"type":"Point","coordinates":[103.8194992,1.357107]}},{"type":"Feature","properties":{"City":"Lampang, Thailand","Month_1":3,"Month_2":9,"Month_3":25,"Month_4":65,"Month_5":160,"Month_6":120,"Month_7":135,"Month_8":185,"Month_9":210,"Month_10":100,"Month_11":30,"Month_12":7},"geometry":{"type":"Point","coordinates":[99.7332501,18.6799728]}},{"type":"Feature","properties":{"City":"Bangkok, Thailand","Month_1":13,"Month_2":20,"Month_3":40,"Month_4":90,"Month_5":250,"Month_6":155,"Month_7":175,"Month_8":220,"Month_9":335,"Month_10":290,"Month_11":50,"Month_12":6},"geometry":{"type":"Point","coordinates":[100.6224463,13.8245796]}},{"type":"Feature","properties":{"City":"Hanoi, Vietnam","Month_1":20,"Month_2":20,"Month_3":35,"Month_4":105,"Month_5":165,"Month_6":265,"Month_7":255,"Month_8":275,"Month_9":245,"Month_10":155,"Month_11":60,"Month_12":20},"geometry":{"type":"Point","coordinates":[105.854041,21.0283334]}},{"type":"Feature","properties":{"City":"Saigon, Vietnam","Month_1":15,"Month_2":5,"Month_3":10,"Month_4":50,"Month_5":220,"Month_6":310,"Month_7":295,"Month_8":270,"Month_9":325,"Month_10":265,"Month_11":115,"Month_12":50},"geometry":{"type":"Point","coordinates":[106.7011391,10.7763897]}},{"type":"Feature","properties":{"City":"Kabul, Afghanistan","Month_1":35,"Month_2":60,"Month_3":65,"Month_4":70,"Month_5":25,"Month_6":1,"Month_7":6,"Month_8":2,"Month_9":2,"Month_10":4,"Month_11":20,"Month_12":20},"geometry":{"type":"Point","coordinates":[69.1776838,34.5260109]}},{"type":"Feature","properties":{"City":"Dhaka, Bangladesh","Month_1":8,"Month_2":25,"Month_3":60,"Month_4":140,"Month_5":280,"Month_6":345,"Month_7":375,"Month_8":295,"Month_9":340,"Month_10":175,"Month_11":30,"Month_12":12},"geometry":{"type":"Point","coordinates":[90.389015,23.7644025]}},{"type":"Feature","properties":{"City":"Thimphu, Bhutan","Month_1":6,"Month_2":9,"Month_3":20,"Month_4":30,"Month_5":50,"Month_6":98,"Month_7":153,"Month_8":121,"Month_9":74,"Month_10":43,"Month_11":1,"Month_12":4},"geometry":{"type":"Point","coordinates":[89.6336729,27.4713546]}},{"type":"Feature","properties":{"City":"New Delhi, India","Month_1":20,"Month_2":20,"Month_3":15,"Month_4":13,"Month_5":30,"Month_6":80,"Month_7":185,"Month_8":235,"Month_9":130,"Month_10":14,"Month_11":5,"Month_12":9},"geometry":{"type":"Point","coordinates":[77.2090057,28.6138954]}},{"type":"Feature","properties":{"City":"Mumbai (Bombay), India","Month_1":1,"Month_2":1,"Month_3":1,"Month_4":1,"Month_5":20,"Month_6":530,"Month_7":710,"Month_8":495,"Month_9":330,"Month_10":80,"Month_11":15,"Month_12":3},"geometry":{"type":"Point","coordinates":[72.82810492,18.9733536]}},{"type":"Feature","properties":{"City":"Colombo, Sri Lanka","Month_1":85,"Month_2":70,"Month_3":101,"Month_4":267,"Month_5":316,"Month_6":203,"Month_7":134,"Month_8":120,"Month_9":276,"Month_10":395,"Month_11":364,"Month_12":174},"geometry":{"type":"Point","coordinates":[79.8542005,6.9388614]}},{"type":"Feature","properties":{"City":"Kathmandu, Nepal","Month_1":14,"Month_2":20,"Month_3":35,"Month_4":60,"Month_5":125,"Month_6":235,"Month_7":365,"Month_8":330,"Month_9":200,"Month_10":50,"Month_11":8,"Month_12":13},"geometry":{"type":"Point","coordinates":[85.3205817,27.708317]}},{"type":"Feature","properties":{"City":"Islamabad, Pakistan","Month_1":65,"Month_2":95,"Month_3":110,"Month_4":80,"Month_5":55,"Month_6":80,"Month_7":275,"Month_8":290,"Month_9":100,"Month_10":35,"Month_11":25,"Month_12":45},"geometry":{"type":"Point","coordinates":[73.0651511,33.6938118]}}]}